[
  {
    "id": "r1",
    "title": "Galpão logístico em Contagem - Eixo João César",
    "address": "Av. João César de Oliveira",
    "city": "Contagem",
    "state": "MG",
    "lat": -19.931,
    "lon": -44.053,
    "url": "https://example.com/r1",
    "source": "sample",
    "property_type": "galpao",
    "built_area_m2": 1400,
    "land_area_m2": 2200,
    "bedrooms": 0,
    "bathrooms": 4,
    "parking": 6,
    "is_rental": true,
    "price_total": 39200.0,
    "price_per_m2": 28.0,
    "date_posted": "2025-07-15",
    "extras": {
      "docks": 2,
      "ceiling": 9
    }
  },
  {
    "id": "r2",
    "title": "Galpão industrial próximo à BR-381",
    "address": "BR-381",
    "city": "Betim",
    "state": "MG",
    "lat": -19.966,
    "lon": -44.196,
    "url": "https://example.com/r2",
    "source": "sample",
    "property_type": "galpao",
    "built_area_m2": 1800,
    "land_area_m2": 3000,
    "bedrooms": 0,
    "bathrooms": 3,
    "parking": 8,
    "is_rental": true,
    "price_total": 43200.0,
    "price_per_m2": 24.0,
    "date_posted": "2025-06-20",
    "extras": {
      "docks": 1,
      "ceiling": 8
    }
  },
  {
    "id": "r3",
    "title": "Galpão padrão em Vespasiano",
    "address": "Av. Akira Tanaka",
    "city": "Vespasiano",
    "state": "MG",
    "lat": -19.689,
    "lon": -43.923,
    "url": "https://example.com/r3",
    "source": "sample",
    "property_type": "galpao",
    "built_area_m2": 1200,
    "land_area_m2": 2000,
    "bedrooms": 0,
    "bathrooms": 2,
    "parking": 4,
    "is_rental": true,
    "price_total": 26400.0,
    "price_per_m2": 22.0,
    "date_posted": "2025-08-05",
    "extras": {
      "docks": 0,
      "ceiling": 7
    }
  },
  {
    "id": "r4",
    "title": "Galpão novo – bairro industrial",
    "address": "Rua A",
    "city": "Santa Luzia",
    "state": "MG",
    "lat": -19.769,
    "lon": -43.851,
    "url": "https://example.com/r4",
    "source": "sample",
    "property_type": "galpao",
    "built_area_m2": 1600,
    "land_area_m2": 2800,
    "bedrooms": 0,
    "bathrooms": 4,
    "parking": 5,
    "is_rental": true,
    "price_total": 48000.0,
    "price_per_m2": 30.0,
    "date_posted": "2025-07-30",
    "extras": {
      "docks": 2,
      "ceiling": 10
    }
  },
  {
    "id": "r5",
    "title": "Galpão com escritório – Lagoa Santa",
    "address": "Rod. MG-010",
    "city": "Lagoa Santa",
    "state": "MG",
    "lat": -19.639,
    "lon": -43.893,
    "url": "https://example.com/r5",
    "source": "sample",
    "property_type": "galpao",
    "built_area_m2": 1500,
    "land_area_m2": 2600,
    "bedrooms": 0,
    "bathrooms": 3,
    "parking": 6,
    "is_rental": true,
    "price_total": 39000.0,
    "price_per_m2": 26.0,
    "date_posted": "2025-05-18",
    "extras": {
      "docks": 1,
      "ceiling": 8.5
    }
  },
  {
    "id": "r6",
    "title": "Parque logístico – módulo 2000 m²",
    "address": "Anel Rodoviário",
    "city": "Belo Horizonte",
    "state": "MG",
    "lat": -19.922,
    "lon": -43.945,
    "url": "https://example.com/r6",
    "source": "sample",
    "property_type": "galpao",
    "built_area_m2": 2000,
    "land_area_m2": 3500,
    "bedrooms": 0,
    "bathrooms": 5,
    "parking": 10,
    "is_rental": true,
    "price_total": 64000.0,
    "price_per_m2": 32.0,
    "date_posted": "2025-08-10",
    "extras": {
      "docks": 3,
      "ceiling": 11
    }
  },
  {
    "id": "s1",
    "title": "Galpão à venda – Contagem (próx. CEASA)",
    "address": "Região CEASA",
    "city": "Contagem",
    "state": "MG",
    "lat": -19.931,
    "lon": -44.053,
    "url": "https://example.com/s1",
    "source": "sample",
    "property_type": "galpao",
    "built_area_m2": 1300,
    "land_area_m2": 2300,
    "bedrooms": 0,
    "bathrooms": 4,
    "parking": 6,
    "is_rental": false,
    "price_total": 3120000,
    "price_per_m2": 2400,
    "date_posted": "2025-06-28",
    "extras": {
      "ceiling": 9
    }
  },
  {
    "id": "s2",
    "title": "Galpão à venda – Betim polo industrial",
    "address": "Polo industrial",
    "city": "Betim",
    "state": "MG",
    "lat": -19.966,
    "lon": -44.196,
    "url": "https://example.com/s2",
    "source": "sample",
    "property_type": "galpao",
    "built_area_m2": 1700,
    "land_area_m2": 3000,
    "bedrooms": 0,
    "bathrooms": 3,
    "parking": 8,
    "is_rental": false,
    "price_total": 3570000,
    "price_per_m2": 2100,
    "date_posted": "2025-07-05",
    "extras": {
      "ceiling": 8
    }
  },
  {
    "id": "s3",
    "title": "Galpão à venda – Vespasiano (próx. Aeroporto)",
    "address": "Linha Verde",
    "city": "Vespasiano",
    "state": "MG",
    "lat": -19.689,
    "lon": -43.923,
    "url": "https://example.com/s3",
    "source": "sample",
    "property_type": "galpao",
    "built_area_m2": 1500,
    "land_area_m2": 2600,
    "bedrooms": 0,
    "bathrooms": 3,
    "parking": 6,
    "is_rental": false,
    "price_total": 3450000,
    "price_per_m2": 2300,
    "date_posted": "2025-08-01",
    "extras": {
      "ceiling": 9
    }
  },
  {
    "id": "s4",
    "title": "Galpão à venda – Santa Luzia (novo)",
    "address": "Distrito Industrial",
    "city": "Santa Luzia",
    "state": "MG",
    "lat": -19.769,
    "lon": -43.851,
    "url": "https://example.com/s4",
    "source": "sample",
    "property_type": "galpao",
    "built_area_m2": 1600,
    "land_area_m2": 2800,
    "bedrooms": 0,
    "bathrooms": 4,
    "parking": 6,
    "is_rental": false,
    "price_total": 4640000,
    "price_per_m2": 2900,
    "date_posted": "2025-07-25",
    "extras": {
      "ceiling": 10
    }
  },
  {
    "id": "s5",
    "title": "Galpão à venda – Lagoa Santa (padrão)",
    "address": "MG-010",
    "city": "Lagoa Santa",
    "state": "MG",
    "lat": -19.639,
    "lon": -43.893,
    "url": "https://example.com/s5",
    "source": "sample",
    "property_type": "galpao",
    "built_area_m2": 1500,
    "land_area_m2": 2700,
    "bedrooms": 0,
    "bathrooms": 3,
    "parking": 6,
    "is_rental": false,
    "price_total": 3300000,
    "price_per_m2": 2200,
    "date_posted": "2025-06-10",
    "extras": {
      "ceiling": 8.5
    }
  },
  {
    "id": "s6",
    "title": "Condomínio logístico – módulo 2000 m² à venda",
    "address": "Anel Rodoviário",
    "city": "Belo Horizonte",
    "state": "MG",
    "lat": -19.922,
    "lon": -43.945,
    "url": "https://example.com/s6",
    "source": "sample",
    "property_type": "galpao",
    "built_area_m2": 2000,
    "land_area_m2": 3500,
    "bedrooms": 0,
    "bathrooms": 5,
    "parking": 10,
    "is_rental": false,
    "price_total": 6200000,
    "price_per_m2": 3100,
    "date_posted": "2025-08-12",
    "extras": {
      "ceiling": 11
    }
  }
]